UserIndex,Action,State,TimeStamp,HighLevelStateActionProbab,StateActionProbab,IdleTime,Reward,Subtask_Screenshot_Time,Subtask_Idle_Time,ZoomLevel,NDSI,Subtask_Zoom,Subtask_ROI,Latitude,Longitude,All_address,All_raw_address,Most_frequent_state,Most_frequent_region,Angle,high-level-action
0,start,Foraging,2016-06-08 16:46:40.378,0.6666666666666666,0.4,0.0,0,1,1,0,0.169186,1,1,34.103049999999996,-98.6128,"['None', 'Other', 'None', 'Other', 'None', 'Other', 'None', 'Other']","[[15.2153, -132.053], [52.9908, -65.1726], [15.2153, -132.053], [52.9908, -65.1726], [15.2153, -132.053], [52.9908, -65.1726], [15.2153, -132.053], [52.9908, -65.1726]]",None,None,0.0,change
1,zoom,Foraging,2016-06-08 16:47:12.389,0.5,0.3333333333333333,32.011,0,1,1,1,0.626178375,1,1,32.654175,-94.1993125,"['None', 'South', 'Other', 'None', 'None', 'NorthernRockiesPlains', 'South', 'Other']","[[18.1367, -107.299], [30.3858, -97.2569], [15.1746, -86.0958], [30.4655, -77.7951], [30.5427, -132.053], [52.9945, -94.0237], [30.5342, -93.9559], [52.9994, -65.1151]]",None,None,0.0,same
2,pan,Foraging,2016-06-08 16:47:13.675,0.6,0.2857142857142857,1.286,0,1,1,1,0.0,1,1,41.7668,-79.5355,"['South', 'Other', 'South', 'Other', 'South', 'Other', 'South', 'Other']","[[30.5342, -93.9559], [52.9994, -65.1151], [30.5342, -93.9559], [52.9994, -65.1151], [30.5342, -93.9559], [52.9994, -65.1151], [30.5342, -93.9559], [52.9994, -65.1151]]",Texas,South,353.3093787255748,same
3,pan,Foraging,2016-06-08 16:47:14.778,0.6666666666666666,0.375,1.103,0,1,1,1,0.0,1,1,41.7668,-79.5355,"['South', 'Other', 'South', 'Other', 'South', 'Other', 'South', 'Other']","[[30.5342, -93.9559], [52.9994, -65.1151], [30.5342, -93.9559], [52.9994, -65.1151], [30.5342, -93.9559], [52.9994, -65.1151], [30.5342, -93.9559], [52.9994, -65.1151]]",Texas,South,342.95003116499055,same
4,pan,Foraging,2016-06-08 16:47:20.947,0.7142857142857143,0.4444444444444444,6.169,0,1,1,1,0.0,1,1,41.7668,-79.5355,"['South', 'Other', 'South', 'Other', 'South', 'Other', 'South', 'Other']","[[30.5342, -93.9559], [52.9994, -65.1151], [30.5342, -93.9559], [52.9994, -65.1151], [30.5342, -93.9559], [52.9994, -65.1151], [30.5342, -93.9559], [52.9994, -65.1151]]",Texas,South,5.091858993513528,same
5,pan,Foraging,2016-06-08 16:47:22.629,0.75,0.5,1.682,0,1,1,1,0.0,1,1,41.7668,-79.5355,"['South', 'Other', 'South', 'Other', 'South', 'Other', 'South', 'Other']","[[30.5342, -93.9559], [52.9994, -65.1151], [30.5342, -93.9559], [52.9994, -65.1151], [30.5342, -93.9559], [52.9994, -65.1151], [30.5342, -93.9559], [52.9994, -65.1151]]",Texas,South,1.3528772611508706,same
6,zoom,Navigation,2016-06-08 16:47:23.400,0.6666666666666666,0.4,0.771,0,1,1,2,0.651013625,1,1,42.36835000000001,-113.94953749999999,"['None', 'West', 'None', 'UpperMidwest', 'None', 'Other', 'West', 'NorthernRockiesPlains']","[[35.4656, -124.134], [41.6637, -116.597], [30.5427, -116.467], [41.7484, -95.2126], [41.7792, -132.156], [52.9917, -116.51], [41.761, -116.496], [52.9945, -94.0237]]",None,None,0.0,change
7,pan,Navigation,2016-06-08 16:47:26.234,0.5,0.3333333333333333,2.834,0,1,1,2,0.0,1,1,47.377750000000006,-105.25985,"['West', 'NorthernRockiesPlains', 'West', 'NorthernRockiesPlains', 'West', 'NorthernRockiesPlains', 'West', 'NorthernRockiesPlains']","[[41.761, -116.496], [52.9945, -94.0237], [41.761, -116.496], [52.9945, -94.0237], [41.761, -116.496], [52.9945, -94.0237], [41.761, -116.496], [52.9945, -94.0237]]",Nevada,West,8.203922321484209,same
8,zoom,Navigation,2016-06-08 16:47:27.046,0.6,0.42857142857142855,0.812,0,1,1,3,0.657263,1,1,47.9384,-111.895675,"['None', 'NorthernRockiesPlains', 'SouthWest', 'NorthernRockiesPlains', 'None', 'Other', 'NorthernRockiesPlains', 'NorthernRockiesPlains']","[[41.7759, -124.65], [48.4972, -112.005], [41.7504, -111.985], [48.49, -98.502], [48.5013, -125.495], [52.9961, -112.008], [48.5, -111.989], [52.9963, -98.5314]]",None,NorthernRockiesPlains,0.0,same
9,pan,Sensemaking,2016-06-08 16:47:28.692,0.6666666666666666,0.4,1.646,0,1,1,3,0.0,1,1,50.748149999999995,-105.2602,"['NorthernRockiesPlains', 'NorthernRockiesPlains', 'NorthernRockiesPlains', 'NorthernRockiesPlains', 'NorthernRockiesPlains', 'NorthernRockiesPlains', 'NorthernRockiesPlains', 'NorthernRockiesPlains']","[[48.5, -111.989], [52.9963, -98.5314], [48.5, -111.989], [52.9963, -98.5314], [48.5, -111.989], [52.9963, -98.5314], [48.5, -111.989], [52.9963, -98.5314]]",Montana,NorthernRockiesPlains,355.4069051486335,change
10,pan,Sensemaking,2016-06-08 16:47:39.666,0.5,0.5,10.974,0,1,1,3,0.0,1,1,50.748149999999995,-105.2602,"['NorthernRockiesPlains', 'NorthernRockiesPlains', 'NorthernRockiesPlains', 'NorthernRockiesPlains', 'NorthernRockiesPlains', 'NorthernRockiesPlains', 'NorthernRockiesPlains', 'NorthernRockiesPlains']","[[48.5, -111.989], [52.9963, -98.5314], [48.5, -111.989], [52.9963, -98.5314], [48.5, -111.989], [52.9963, -98.5314], [48.5, -111.989], [52.9963, -98.5314]]",Montana,NorthernRockiesPlains,5.047651784754124,same
11,zoom,Navigation,2016-06-08 16:47:40.775,0.5,0.5,1.109,0,1,2,2,0.651013625,1,2,42.36835000000001,-113.94953749999999,"['None', 'West', 'None', 'UpperMidwest', 'None', 'Other', 'West', 'NorthernRockiesPlains']","[[35.4656, -124.134], [41.6637, -116.597], [30.5427, -116.467], [41.7484, -95.2126], [41.7792, -132.156], [52.9917, -116.51], [41.761, -116.496], [52.9945, -94.0237]]",None,None,0.0,change
12,pan,Navigation,2016-06-08 16:47:42.103,0.5714285714285714,0.3333333333333333,1.328,0,1,2,2,0.0,1,2,47.377750000000006,-105.25985,"['West', 'NorthernRockiesPlains', 'West', 'NorthernRockiesPlains', 'West', 'NorthernRockiesPlains', 'West', 'NorthernRockiesPlains']","[[41.761, -116.496], [52.9945, -94.0237], [41.761, -116.496], [52.9945, -94.0237], [41.761, -116.496], [52.9945, -94.0237], [41.761, -116.496], [52.9945, -94.0237]]",Nevada,West,18.711224638607607,same
13,pan,Navigation,2016-06-08 16:47:42.937,0.625,0.4,0.834,0,1,2,2,0.0,1,2,47.377750000000006,-105.25985,"['West', 'NorthernRockiesPlains', 'West', 'NorthernRockiesPlains', 'West', 'NorthernRockiesPlains', 'West', 'NorthernRockiesPlains']","[[41.761, -116.496], [52.9945, -94.0237], [41.761, -116.496], [52.9945, -94.0237], [41.761, -116.496], [52.9945, -94.0237], [41.761, -116.496], [52.9945, -94.0237]]",Nevada,West,20.007577533914244,same
14,zoom,Navigation,2016-06-08 16:47:50.822,0.6666666666666666,0.45454545454545453,7.885,0,1,2,1,0.327179625,1,2,37.3917625,-110.34825000000001,"['None', 'South', 'None', 'NorthernRockiesPlains', 'None', 'NorthernRockiesPlains', 'None', 'NorthernRockiesPlains']","[[18.1367, -107.299], [30.3858, -97.2569], [30.5427, -132.053], [52.9945, -94.0237], [30.5427, -132.053], [52.9945, -94.0237], [30.5427, -132.053], [52.9945, -94.0237]]",None,None,0.0,same
15,pan,Foraging,2016-06-08 16:47:55.700,0.3333333333333333,0.5454545454545454,4.878,0,1,2,1,0.0,1,2,41.7686,-113.03835000000001,"['None', 'NorthernRockiesPlains', 'None', 'NorthernRockiesPlains', 'None', 'NorthernRockiesPlains', 'None', 'NorthernRockiesPlains']","[[30.5427, -132.053], [52.9945, -94.0237], [30.5427, -132.053], [52.9945, -94.0237], [30.5427, -132.053], [52.9945, -94.0237], [30.5427, -132.053], [52.9945, -94.0237]]",None,None,351.3215673521636,change
16,zoom,Navigation,2016-06-08 16:47:58.007,0.4,0.5,2.307,0,1,2,2,0.651013625,1,2,42.36835000000001,-113.94953749999999,"['None', 'West', 'None', 'UpperMidwest', 'None', 'Other', 'West', 'NorthernRockiesPlains']","[[35.4656, -124.134], [41.6637, -116.597], [30.5427, -116.467], [41.7484, -95.2126], [41.7792, -132.156], [52.9917, -116.51], [41.761, -116.496], [52.9945, -94.0237]]",None,None,0.0,change
17,zoom,Navigation,2016-06-08 16:47:58.606,0.6363636363636364,0.5384615384615384,0.599,0,1,2,3,0.650957125,1,2,41.8029375,-111.7233375,"['None', 'SouthWest', 'South', 'NorthernRockiesPlains', 'None', 'NorthernRockiesPlains', 'SouthWest', 'NorthernRockiesPlains']","[[35.4466, -124.124], [41.7065, -112.025], [35.0085, -111.96], [41.7484, -98.5357], [41.7759, -124.65], [48.4972, -112.005], [41.7504, -111.985], [48.49, -98.502]]",None,NorthernRockiesPlains,0.0,same
18,zoom,Navigation,2016-06-08 16:47:59.247,0.6666666666666666,0.5714285714285714,0.641,0,1,2,4,0.568514,1,2,41.743575,-118.33924999999999,"['None', 'West', 'West', 'SouthWest', 'West', 'NorthWest', 'West', 'NorthernRockiesPlains']","[[38.3905, -124.129], [41.6637, -118.79], [38.3846, -117.919], [41.727, -112.01], [41.7788, -124.358], [45.112, -118.753], [41.7759, -118.75], [45.1161, -112.005]]",Nevada,West,0.0,same
19,pan,Navigation,2016-06-08 16:48:00.470,0.6923076923076923,0.3333333333333333,1.223,0,1,2,4,0.0,1,2,43.446,-115.3775,"['West', 'NorthernRockiesPlains', 'West', 'NorthernRockiesPlains', 'West', 'NorthernRockiesPlains', 'West', 'NorthernRockiesPlains']","[[41.7759, -118.75], [45.1161, -112.005], [41.7759, -118.75], [45.1161, -112.005], [41.7759, -118.75], [45.1161, -112.005], [41.7759, -118.75], [45.1161, -112.005]]",Nevada,West,10.384974085202279,same
20,zoom,Navigation,2016-06-08 16:48:01.774,0.7142857142857143,0.5625,1.304,0,1,2,5,0.46348900000000004,2,2,43.4973875,-121.77612500000001,"['West', 'NorthWest', 'West', 'NorthWest', 'NorthWest', 'NorthWest', 'NorthWest', 'NorthWest']","[[41.8403, -124.358], [43.4836, -122.13], [41.8978, -122.075], [42.8935, -118.701], [43.8728, -124.084], [45.2229, -122.089], [43.5473, -122.072], [45.2209, -118.7]]",Oregon,NorthWest,0.0,same
21,pan,Sensemaking,2016-06-08 16:48:06.183,0.6,0.5714285714285714,4.409,0,1,2,5,0.0,2,2,44.384100000000004,-120.386,"['NorthWest', 'NorthWest', 'NorthWest', 'NorthWest', 'NorthWest', 'NorthWest', 'NorthWest', 'NorthWest']","[[43.5473, -122.072], [45.2209, -118.7], [43.5473, -122.072], [45.2209, -118.7], [43.5473, -122.072], [45.2209, -118.7], [43.5473, -122.072], [45.2209, -118.7]]",Oregon,NorthWest,344.0164575133603,change
22,pan,Sensemaking,2016-06-08 16:48:07.385,0.5,0.625,1.202,0,1,2,5,0.0,2,2,44.384100000000004,-120.386,"['NorthWest', 'NorthWest', 'NorthWest', 'NorthWest', 'NorthWest', 'NorthWest', 'NorthWest', 'NorthWest']","[[43.5473, -122.072], [45.2209, -118.7], [43.5473, -122.072], [45.2209, -118.7], [43.5473, -122.072], [45.2209, -118.7], [43.5473, -122.072], [45.2209, -118.7]]",Oregon,NorthWest,354.0722761219261,same
23,pan,Sensemaking,2016-06-08 16:48:11.217,0.5714285714285714,0.6666666666666666,3.832,0,1,2,5,0.274746375,2,2,46.064674999999994,-121.07375,"['NorthWest', 'NorthWest', 'NorthWest', 'NorthWest', 'NorthWest', 'NorthWest', 'NorthWest', 'NorthWest']","[[45.225, -124.028], [46.873, -122.084], [45.2255, -122.077], [46.9143, -118.749], [45.2255, -122.077], [46.9143, -118.749], [45.2255, -122.077], [46.9143, -118.749]]",Oregon,NorthWest,0.20801918808471598,same
24,zoom,Navigation,2016-06-08 16:48:12.302,0.3333333333333333,0.5882352941176471,1.085,0,1,2,4,0.287110625,2,3,22.565624999999997,-60.81725,"['None', 'West', 'NorthWest', 'None', 'None', 'NorthWest']","[[41.7788, -124.358], [45.112, -118.753], [45.1393, -124.664], [48.4949, -118.763]]",None,None,0.0,change
25,zoom,Navigation,2016-06-08 16:48:12.839,0.6875,0.6111111111111112,0.537,0,1,2,3,0.32348475,2,3,20.928275,-59.1005,"['None', 'None', 'SouthWest', 'None', 'None', 'NorthernRockiesPlains']","[[35.4466, -124.124], [41.7065, -112.025], [41.7759, -124.65], [48.4972, -112.005]]",None,None,0.0,same
26,zoom,Navigation,2016-06-08 16:48:13.318,0.7058823529411765,0.631578947368421,0.479,0,1,2,2,0.651013625,2,3,42.36835000000001,-113.94953749999999,"['None', 'West', 'None', 'UpperMidwest', 'None', 'Other', 'West', 'NorthernRockiesPlains']","[[35.4656, -124.134], [41.6637, -116.597], [30.5427, -116.467], [41.7484, -95.2126], [41.7792, -132.156], [52.9917, -116.51], [41.761, -116.496], [52.9945, -94.0237]]",None,None,0.0,same
27,pan,Foraging,2016-06-08 16:48:15.305,0.4,0.5833333333333334,1.987,0,1,2,2,0.0,2,3,47.377750000000006,-105.25985,"['West', 'NorthernRockiesPlains', 'West', 'NorthernRockiesPlains', 'West', 'NorthernRockiesPlains', 'West', 'NorthernRockiesPlains']","[[41.761, -116.496], [52.9945, -94.0237], [41.761, -116.496], [52.9945, -94.0237], [41.761, -116.496], [52.9945, -94.0237], [41.761, -116.496], [52.9945, -94.0237]]",Nevada,West,339.6600284846199,change
28,pan,Foraging,2016-06-08 16:48:21.854,0.6363636363636364,0.6153846153846154,6.549,0,1,2,2,0.0,2,3,47.377750000000006,-105.25985,"['West', 'NorthernRockiesPlains', 'West', 'NorthernRockiesPlains', 'West', 'NorthernRockiesPlains', 'West', 'NorthernRockiesPlains']","[[41.761, -116.496], [52.9945, -94.0237], [41.761, -116.496], [52.9945, -94.0237], [41.761, -116.496], [52.9945, -94.0237], [41.761, -116.496], [52.9945, -94.0237]]",Nevada,West,1.5592604778215855,same
29,pan,Foraging,2016-06-08 16:48:23.179,0.6666666666666666,0.6428571428571429,1.325,0,1,2,2,0.0,2,3,47.377750000000006,-105.25985,"['West', 'NorthernRockiesPlains', 'West', 'NorthernRockiesPlains', 'West', 'NorthernRockiesPlains', 'West', 'NorthernRockiesPlains']","[[41.761, -116.496], [52.9945, -94.0237], [41.761, -116.496], [52.9945, -94.0237], [41.761, -116.496], [52.9945, -94.0237], [41.761, -116.496], [52.9945, -94.0237]]",Nevada,West,1.8971333915590431,same
30,zoom,Navigation,2016-06-08 16:48:23.958,0.3333333333333333,0.65,0.779,0,1,2,3,0.47314325,2,3,36.742025,-91.477625,"['None', 'None', 'NorthernRockiesPlains', 'None', 'NorthWest', 'None', 'Other']","[[41.7759, -124.65], [48.4972, -112.005], [49.1719, -132.156], [52.9938, -125.507], [48.5013, -125.495], [52.9961, -112.008]]",None,None,0.0,change
31,zoom,Navigation,2016-06-08 16:48:24.502,0.6842105263157895,0.6666666666666666,0.544,0,1,2,4,0.645461125,2,3,48.5021875,-118.64875,"['None', 'NorthWest', 'NorthWest', 'NorthernRockiesPlains', 'None', 'NorthWest', 'NorthWest', 'Other']","[[45.1393, -124.664], [48.4949, -118.763], [45.1357, -118.749], [48.4972, -112.017], [48.5002, -125.495], [51.8744, -118.758], [48.505, -118.734], [51.8708, -112.01]]",None,NorthWest,0.0,same
32,zoom,Navigation,2016-06-08 16:48:24.974,0.7,0.6818181818181818,0.472,0,1,2,5,0.584113375,2,3,46.910762500000004,-121.88675,"['NorthWest', 'NorthWest', 'NorthWest', 'NorthWest', 'None', 'NorthWest', 'NorthWest', 'NorthWest']","[[45.225, -124.028], [46.873, -122.084], [45.2255, -122.077], [46.9143, -118.749], [46.9181, -124.675], [48.6062, -122.08], [46.9167, -122.076], [48.6073, -119.325]]",Washington,NorthWest,0.0,same
33,pan,Navigation,2016-06-08 16:48:26.146,0.7142857142857143,0.2608695652173913,1.172,0,1,2,5,0.47323149999999997,2,3,49.038737499999996,-117.830375,"['NorthWest', 'NorthernRockiesPlains', 'NorthWest', 'NorthWest', 'NorthWest', 'NorthWest', 'NorthWest', 'NorthWest']","[[46.9166, -118.648], [48.5908, -115.314], [48.6095, -121.938], [50.2982, -118.703], [48.6478, -118.693], [50.2996, -115.327], [48.6478, -118.693], [50.2996, -115.327]]",Washington,NorthWest,348.14253583382794,same
34,zoom,Navigation,2016-06-08 16:48:27.056,0.7272727272727273,0.6666666666666666,0.91,0,1,2,6,0.6113252499999999,2,3,47.7854125,-120.595,"['NorthWest', 'NorthWest', 'NorthWest', 'NorthWest', 'NorthWest', 'NorthWest', 'NorthWest', 'NorthWest']","[[46.916, -122.079], [47.7601, -120.388], [47.107, -120.388], [47.7606, -119.724], [47.7666, -122.08], [48.6073, -120.388], [47.7626, -120.388], [48.6031, -119.325]]",Washington,NorthWest,0.0,same
35,pan,Sensemaking,2016-06-08 16:48:28.842,0.6666666666666666,0.4,1.786,0,1,2,6,0.0,2,3,48.18285,-119.85650000000001,"['NorthWest', 'NorthWest', 'NorthWest', 'NorthWest', 'NorthWest', 'NorthWest', 'NorthWest', 'NorthWest']","[[47.7626, -120.388], [48.6031, -119.325], [47.7626, -120.388], [48.6031, -119.325], [47.7626, -120.388], [48.6031, -119.325], [47.7626, -120.388], [48.6031, -119.325]]",Washington,NorthWest,0.0,change
36,zoom,Navigation,2016-06-08 16:48:29.422,0.30434782608695654,0.68,0.58,0,1,2,5,0.6424013749999999,2,3,48.6108125,-118.753,"['NorthWest', 'NorthWest', 'NorthWest', 'NorthernRockiesPlains', 'NorthWest', 'NorthWest', 'NorthWest', 'NorthWest']","[[46.9167, -122.076], [48.6073, -119.325], [46.9166, -118.648], [48.5908, -115.314], [48.6095, -121.938], [50.2982, -118.703], [48.6478, -118.693], [50.2996, -115.327]]",Washington,NorthWest,0.0,change
37,pan,Sensemaking,2016-06-08 16:48:35.266,0.5,0.7,5.844,0,1,2,5,0.4149435,2,3,46.9108,-122.556,"['NorthWest', 'NorthWest', 'NorthWest', 'NorthWest', 'None', 'NorthWest', 'None', 'NorthWest']","[[45.225, -124.028], [46.873, -122.084], [45.2255, -122.077], [46.9143, -118.749], [46.9181, -124.675], [48.6062, -122.08], [46.9181, -124.675], [48.6062, -122.08]]",Washington,NorthWest,3.9681785735260875,change
38,pan,Sensemaking,2016-06-08 16:48:45.225,0.5555555555555556,0.7272727272727273,9.959,10,1,2,5,0.30407887499999997,2,3,49.453050000000005,-121.185125,"['None', 'NorthWest', 'NorthWest', 'NorthWest', 'NorthWest', 'NorthWest', 'NorthWest', 'NorthWest']","[[48.6107, -125.463], [50.2906, -122.095], [48.6095, -121.938], [50.2982, -118.703], [48.6095, -121.938], [50.2982, -118.703], [48.6095, -121.938], [50.2982, -118.703]]",British Columbia,NorthWest,359.3855772039007,same
39,zoom,Navigation,2016-06-08 16:48:49.534,0.3333333333333333,0.6923076923076923,4.309,10,2,2,4,0.645461125,2,4,48.5021875,-118.64875,"['None', 'NorthWest', 'NorthWest', 'NorthernRockiesPlains', 'None', 'NorthWest', 'NorthWest', 'Other']","[[45.1393, -124.664], [48.4949, -118.763], [45.1357, -118.749], [48.4972, -112.017], [48.5002, -125.495], [51.8744, -118.758], [48.505, -118.734], [51.8708, -112.01]]",None,NorthWest,0.0,change
40,zoom,Navigation,2016-06-08 16:48:50.262,0.68,0.7037037037037037,0.728,10,2,2,3,0.47314325,2,4,36.742025,-91.477625,"['None', 'None', 'NorthernRockiesPlains', 'None', 'NorthWest', 'None', 'Other']","[[41.7759, -124.65], [48.4972, -112.005], [49.1719, -132.156], [52.9938, -125.507], [48.5013, -125.495], [52.9961, -112.008]]",None,None,0.0,same
41,zoom,Navigation,2016-06-08 16:48:50.830,0.6923076923076923,0.7142857142857143,0.568,10,2,2,2,0.3336255,2,4,47.379675000000006,-110.0281375,"['None', 'Other', 'West', 'NorthernRockiesPlains', 'West', 'NorthernRockiesPlains', 'West', 'NorthernRockiesPlains']","[[41.7792, -132.156], [52.9917, -116.51], [41.761, -116.496], [52.9945, -94.0237], [41.761, -116.496], [52.9945, -94.0237], [41.761, -116.496], [52.9945, -94.0237]]",Nevada,West,0.0,same
42,zoom,Navigation,2016-06-08 16:48:51.534,0.7037037037037037,0.7241379310344828,0.704,10,2,2,1,0.169158125,2,4,41.7686,-113.03835000000001,"['None', 'NorthernRockiesPlains', 'None', 'NorthernRockiesPlains', 'None', 'NorthernRockiesPlains', 'None', 'NorthernRockiesPlains']","[[30.5427, -132.053], [52.9945, -94.0237], [30.5427, -132.053], [52.9945, -94.0237], [30.5427, -132.053], [52.9945, -94.0237], [30.5427, -132.053], [52.9945, -94.0237]]",None,None,0.0,same
43,pan,Foraging,2016-06-08 16:48:55.289,0.38461538461538464,0.6666666666666666,3.755,10,2,2,1,0.45702025,2,4,32.653725,-85.8236,"['None', 'South', 'Other', 'None', 'South', 'Other', 'South', 'Other']","[[18.1367, -107.299], [30.3858, -97.2569], [15.1746, -86.0958], [30.4655, -77.7951], [30.5342, -93.9559], [52.9994, -65.1151], [30.5342, -93.9559], [52.9994, -65.1151]]",Texas,South,356.03228250523756,change
44,pan,Foraging,2016-06-08 16:48:58.297,0.6428571428571429,0.6875,3.008,10,2,2,1,0.0,2,4,41.7668,-79.5355,"['South', 'Other', 'South', 'Other', 'South', 'Other', 'South', 'Other']","[[30.5342, -93.9559], [52.9994, -65.1151], [30.5342, -93.9559], [52.9994, -65.1151], [30.5342, -93.9559], [52.9994, -65.1151], [30.5342, -93.9559], [52.9994, -65.1151]]",Texas,South,0.13596686566114835,same
45,zoom,Navigation,2016-06-08 16:48:59.463,0.32142857142857145,0.7333333333333333,1.166,10,2,2,2,0.618309125,2,4,41.7611625,-93.7680375,"['None', 'UpperMidwest', 'South', 'Northeast', 'West', 'NorthernRockiesPlains', 'UpperMidwest', 'Northeast']","[[30.5427, -116.467], [41.7484, -95.2126], [30.5342, -90.8979], [41.7187, -71.5601], [41.761, -116.496], [52.9945, -94.0237], [41.7904, -93.9831], [52.9994, -71.5039]]",Iowa,UpperMidwest,0.0,change
46,zoom,Navigation,2016-06-08 16:48:59.846,0.6896551724137931,0.7419354838709677,0.383,10,2,2,3,0.6367393749999999,2,4,41.83425,-99.685,"['South', 'NorthernRockiesPlains', 'South', 'UpperMidwest', 'SouthWest', 'NorthernRockiesPlains', 'NorthernRockiesPlains', 'NorthernRockiesPlains']","[[35.0085, -111.96], [41.7484, -98.5357], [35.6837, -98.4657], [41.7401, -90.8979], [41.7504, -111.985], [48.49, -98.502], [41.7644, -98.4982], [48.4885, -88.6355]]",Nebraska,NorthernRockiesPlains,0.0,same
47,zoom,Navigation,2016-06-08 16:49:00.070,0.7,0.75,0.224,10,2,2,4,0.630823,2,4,41.8963875,-98.8942,"['SouthWest', 'NorthernRockiesPlains', 'South', 'UpperMidwest', 'NorthernRockiesPlains', 'NorthernRockiesPlains', 'NorthernRockiesPlains', 'UpperMidwest']","[[38.3755, -105.001], [41.7499, -98.5189], [39.5587, -98.4872], [41.7471, -95.1461], [41.7504, -105.244], [45.1093, -98.502], [41.7565, -98.4982], [45.1237, -91.7562]]",Nebraska,NorthernRockiesPlains,0.0,same
48,zoom,Navigation,2016-06-08 16:49:00.470,0.7096774193548387,0.7575757575757576,0.4,10,2,2,5,0.632855375,2,4,41.856624999999994,-98.28468749999999,"['NorthernRockiesPlains', 'NorthernRockiesPlains', 'NorthernRockiesPlains', 'UpperMidwest', 'NorthernRockiesPlains', 'NorthernRockiesPlains', 'NorthernRockiesPlains', 'UpperMidwest']","[[40.2717, -100.81], [41.8387, -98.3941], [40.1595, -98.3847], [41.8396, -95.1161], [41.8411, -101.771], [43.5311, -98.3933], [41.8401, -98.3884], [43.5312, -95.0199]]",Nebraska,NorthernRockiesPlains,0.0,same
49,pan,Sensemaking,2016-06-08 16:49:06.073,0.5,0.75,5.603,10,2,2,5,0.319222625,2,4,44.37205,-97.530025,"['NorthernRockiesPlains', 'NorthernRockiesPlains', 'NorthernRockiesPlains', 'UpperMidwest', 'NorthernRockiesPlains', 'UpperMidwest', 'NorthernRockiesPlains', 'UpperMidwest']","[[43.5325, -101.632], [45.1855, -98.3941], [43.5328, -98.3916], [45.22, -95.0131], [43.5328, -98.3916], [45.22, -95.0131], [43.5328, -98.3916], [45.22, -95.0131]]",South Dakota,NorthernRockiesPlains,342.1245269148949,change
50,zoom,Navigation,2016-06-08 16:49:09.264,0.3125,0.7647058823529411,3.191,10,3,2,4,0.630823,2,5,41.8963875,-98.8942,"['SouthWest', 'NorthernRockiesPlains', 'South', 'UpperMidwest', 'NorthernRockiesPlains', 'NorthernRockiesPlains', 'NorthernRockiesPlains', 'UpperMidwest']","[[38.3755, -105.001], [41.7499, -98.5189], [39.5587, -98.4872], [41.7471, -95.1461], [41.7504, -105.244], [45.1093, -98.502], [41.7565, -98.4982], [45.1237, -91.7562]]",Nebraska,NorthernRockiesPlains,0.0,change
51,zoom,Navigation,2016-06-08 16:49:09.494,0.696969696969697,0.7714285714285715,0.23,10,3,2,3,0.6367393749999999,2,5,41.83425,-99.685,"['South', 'NorthernRockiesPlains', 'South', 'UpperMidwest', 'SouthWest', 'NorthernRockiesPlains', 'NorthernRockiesPlains', 'NorthernRockiesPlains']","[[35.0085, -111.96], [41.7484, -98.5357], [35.6837, -98.4657], [41.7401, -90.8979], [41.7504, -111.985], [48.49, -98.502], [41.7644, -98.4982], [48.4885, -88.6355]]",Nebraska,NorthernRockiesPlains,0.0,same
52,zoom,Navigation,2016-06-08 16:49:09.999,0.7058823529411765,0.7777777777777778,0.505,10,3,2,2,0.618309125,2,5,41.7611625,-93.7680375,"['None', 'UpperMidwest', 'South', 'Northeast', 'West', 'NorthernRockiesPlains', 'UpperMidwest', 'Northeast']","[[30.5427, -116.467], [41.7484, -95.2126], [30.5342, -90.8979], [41.7187, -71.5601], [41.761, -116.496], [52.9945, -94.0237], [41.7904, -93.9831], [52.9994, -71.5039]]",Iowa,UpperMidwest,0.0,same
53,zoom,Navigation,2016-06-08 16:49:10.440,0.7142857142857143,0.7837837837837838,0.441,10,3,2,1,0.32996662499999996,2,5,41.767250000000004,-87.9112125,"['None', 'NorthernRockiesPlains', 'South', 'Other', 'South', 'Other', 'South', 'Other']","[[30.5427, -132.053], [52.9945, -94.0237], [30.5342, -93.9559], [52.9994, -65.1151], [30.5342, -93.9559], [52.9994, -65.1151], [30.5342, -93.9559], [52.9994, -65.1151]]",Texas,South,0.0,same
54,pan,Foraging,2016-06-08 16:49:16.950,0.4,0.7058823529411765,6.51,10,3,2,1,0.15802149999999998,2,5,24.26125,-102.27795,"['None', 'South', 'None', 'South', 'None', 'South', 'None', 'South']","[[18.1367, -107.299], [30.3858, -97.2569], [18.1367, -107.299], [30.3858, -97.2569], [18.1367, -107.299], [30.3858, -97.2569], [18.1367, -107.299], [30.3858, -97.2569]]",None,None,24.041232172599358,change
55,zoom,Foraging,2016-06-08 16:49:17.951,0.625,0.16666666666666666,1.001,10,3,2,2,0.651013625,2,5,42.36835000000001,-113.94953749999999,"['None', 'West', 'None', 'UpperMidwest', 'None', 'Other', 'West', 'NorthernRockiesPlains']","[[35.4656, -124.134], [41.6637, -116.597], [30.5427, -116.467], [41.7484, -95.2126], [41.7792, -132.156], [52.9917, -116.51], [41.761, -116.496], [52.9945, -94.0237]]",None,None,0.0,same
56,pan,Foraging,2016-06-08 16:49:19.676,0.6470588235294118,0.6842105263157895,1.725,0,3,2,2,0.0,2,5,47.377750000000006,-105.25985,"['West', 'NorthernRockiesPlains', 'West', 'NorthernRockiesPlains', 'West', 'NorthernRockiesPlains', 'West', 'NorthernRockiesPlains']","[[41.761, -116.496], [52.9945, -94.0237], [41.761, -116.496], [52.9945, -94.0237], [41.761, -116.496], [52.9945, -94.0237], [41.761, -116.496], [52.9945, -94.0237]]",Nevada,West,343.0307977356255,same
57,pan,Foraging,2016-06-08 16:49:23.563,0.6666666666666666,0.7,3.887,0,3,2,2,0.0,2,5,47.377750000000006,-105.25985,"['West', 'NorthernRockiesPlains', 'West', 'NorthernRockiesPlains', 'West', 'NorthernRockiesPlains', 'West', 'NorthernRockiesPlains']","[[41.761, -116.496], [52.9945, -94.0237], [41.761, -116.496], [52.9945, -94.0237], [41.761, -116.496], [52.9945, -94.0237], [41.761, -116.496], [52.9945, -94.0237]]",Nevada,West,358.08650874582656,same
58,pan,Foraging,2016-06-08 16:49:25.489,0.6842105263157895,0.7142857142857143,1.926,0,3,2,2,0.158515,2,5,47.3949,-82.7435,"['UpperMidwest', 'Northeast', 'UpperMidwest', 'Northeast', 'UpperMidwest', 'Northeast', 'UpperMidwest', 'Northeast']","[[41.7904, -93.9831], [52.9994, -71.5039], [41.7904, -93.9831], [52.9994, -71.5039], [41.7904, -93.9831], [52.9994, -71.5039], [41.7904, -93.9831], [52.9994, -71.5039]]",Iowa,UpperMidwest,339.9311290119472,same
59,pan,Foraging,2016-06-08 16:49:26.252,0.7,0.7272727272727273,0.763,0,3,2,2,0.0,2,5,47.3949,-82.7435,"['UpperMidwest', 'Northeast', 'UpperMidwest', 'Northeast', 'UpperMidwest', 'Northeast', 'UpperMidwest', 'Northeast']","[[41.7904, -93.9831], [52.9994, -71.5039], [41.7904, -93.9831], [52.9994, -71.5039], [41.7904, -93.9831], [52.9994, -71.5039], [41.7904, -93.9831], [52.9994, -71.5039]]",Iowa,UpperMidwest,354.60242591161995,same
60,zoom,Navigation,2016-06-08 16:49:26.991,0.3055555555555556,0.7894736842105263,0.739,0,3,2,3,0.6344531250000001,2,5,47.8727125,-99.42622499999999,"['SouthWest', 'NorthernRockiesPlains', 'NorthernRockiesPlains', 'NorthernRockiesPlains', 'NorthernRockiesPlains', 'NorthernRockiesPlains', 'NorthernRockiesPlains', 'NorthernRockiesPlains']","[[41.7504, -111.985], [48.49, -98.502], [41.7644, -98.4982], [48.4885, -88.6355], [48.5, -111.989], [52.9963, -98.5314], [48.5025, -98.4653], [52.4896, -88.8034]]",North Dakota,NorthernRockiesPlains,0.0,change
61,zoom,Navigation,2016-06-08 16:49:27.414,0.7027027027027027,0.7948717948717948,0.423,0,3,2,4,0.62642325,2,5,48.5008,-105.295525,"['NorthernRockiesPlains', 'NorthernRockiesPlains', 'NorthernRockiesPlains', 'NorthernRockiesPlains', 'NorthernRockiesPlains', 'Other', 'NorthernRockiesPlains', 'NorthernRockiesPlains']","[[45.1258, -111.985], [48.49, -105.253], [45.1276, -105.248], [48.4992, -98.8713], [48.5219, -111.994], [51.8747, -105.251], [48.5, -105.248], [51.8672, -98.5139]]",Montana,NorthernRockiesPlains,0.0,same
62,zoom,Navigation,2016-06-08 16:49:28.230,0.7105263157894737,0.8,0.816,0,3,2,5,0.590185,2,5,48.61998749999999,-105.154375,"['NorthernRockiesPlains', 'NorthernRockiesPlains', 'NorthernRockiesPlains', 'NorthernRockiesPlains', 'NorthernRockiesPlains', 'Other', 'NorthernRockiesPlains', 'Other']","[[46.9161, -108.48], [48.6067, -105.178], [47.018, -105.154], [48.6036, -101.777], [48.6087, -108.543], [50.2986, -105.173], [48.6097, -105.153], [50.2985, -101.777]]",Montana,NorthernRockiesPlains,0.0,same
63,pan,Sensemaking,2016-06-08 16:49:30.257,0.5454545454545454,0.7692307692307693,2.027,0,3,2,5,0.31930825,2,5,48.9619875,-100.0880125,"['NorthernRockiesPlains', 'NorthernRockiesPlains', 'NorthernRockiesPlains', 'NorthernRockiesPlains', 'NorthernRockiesPlains', 'NorthernRockiesPlains', 'NorthernRockiesPlains', 'NorthernRockiesPlains']","[[46.9173, -101.775], [48.6054, -98.4245], [48.6086, -101.774], [50.1158, -98.3942], [48.6086, -101.774], [50.1158, -98.3942], [48.6086, -101.774], [50.1158, -98.3942]]",North Dakota,NorthernRockiesPlains,6.961468456533953,change
64,pan,Sensemaking,2016-06-08 16:49:31.565,0.5,0.7857142857142857,1.308,0,3,2,5,0.0,2,5,49.3622,-100.0841,"['NorthernRockiesPlains', 'NorthernRockiesPlains', 'NorthernRockiesPlains', 'NorthernRockiesPlains', 'NorthernRockiesPlains', 'NorthernRockiesPlains', 'NorthernRockiesPlains', 'NorthernRockiesPlains']","[[48.6086, -101.774], [50.1158, -98.3942], [48.6086, -101.774], [50.1158, -98.3942], [48.6086, -101.774], [50.1158, -98.3942], [48.6086, -101.774], [50.1158, -98.3942]]",North Dakota,NorthernRockiesPlains,335.37632772531026,same
65,zoom,Navigation,2016-06-08 16:49:32.883,0.3076923076923077,0.8048780487804879,1.318,0,3,2,4,0.619396625,2,6,48.494,-98.5404125,"['NorthernRockiesPlains', 'NorthernRockiesPlains', 'NorthernRockiesPlains', 'NorthernRockiesPlains', 'NorthernRockiesPlains', 'NorthernRockiesPlains', 'NorthernRockiesPlains', 'NorthernRockiesPlains']","[[45.1276, -105.248], [48.4992, -98.8713], [45.1255, -98.4456], [48.458, -91.7582], [48.5, -105.248], [51.8672, -98.5139], [48.5025, -98.4831], [51.872, -91.7552]]",Montana,NorthernRockiesPlains,0.0,change
66,zoom,Navigation,2016-06-08 16:49:33.095,0.7,0.8095238095238095,0.212,0,3,2,3,0.6344531250000001,2,6,47.8727125,-99.42622499999999,"['SouthWest', 'NorthernRockiesPlains', 'NorthernRockiesPlains', 'NorthernRockiesPlains', 'NorthernRockiesPlains', 'NorthernRockiesPlains', 'NorthernRockiesPlains', 'NorthernRockiesPlains']","[[41.7504, -111.985], [48.49, -98.502], [41.7644, -98.4982], [48.4885, -88.6355], [48.5, -111.989], [52.9963, -98.5314], [48.5025, -98.4653], [52.4896, -88.8034]]",North Dakota,NorthernRockiesPlains,0.0,same
67,zoom,Navigation,2016-06-08 16:49:33.712,0.7073170731707317,0.813953488372093,0.617,0,3,2,2,0.32296987499999996,2,6,47.3906125,-88.3725875,"['West', 'NorthernRockiesPlains', 'UpperMidwest', 'Northeast', 'UpperMidwest', 'Northeast', 'UpperMidwest', 'Northeast']","[[41.761, -116.496], [52.9945, -94.0237], [41.7904, -93.9831], [52.9994, -71.5039], [41.7904, -93.9831], [52.9994, -71.5039], [41.7904, -93.9831], [52.9994, -71.5039]]",Iowa,UpperMidwest,0.0,same
68,pan,Foraging,2016-06-08 16:49:38.259,0.3333333333333333,0.7391304347826086,4.547,0,3,2,2,0.29533925,2,6,36.131225,-87.38170000000001,"['None', 'UpperMidwest', 'South', 'Northeast', 'South', 'Northeast', 'South', 'Northeast']","[[30.5427, -116.467], [41.7484, -95.2126], [30.5342, -90.8979], [41.7187, -71.5601], [30.5342, -90.8979], [41.7187, -71.5601], [30.5342, -90.8979], [41.7187, -71.5601]]",Louisiana,South,339.42536755697773,change
69,pan,Foraging,2016-06-08 16:49:39.048,0.6818181818181818,0.75,0.789,0,3,2,2,0.28786587500000005,2,6,44.5803875,-68.980325,"['Northeast', 'Northeast', 'Northeast', 'Northeast', 'Northeast', 'Northeast', 'Northeast', 'Northeast']","[[41.3786, -71.4974], [41.7272, -70.6166], [41.7966, -71.4782], [49.3825, -65.098], [41.7966, -71.4782], [49.3825, -65.098], [41.7966, -71.4782], [49.3825, -65.098]]",Rhode Island,Northeast,350.60700362111845,same
70,pan,Foraging,2016-06-08 16:49:41.001,0.6956521739130435,0.76,1.953,0,3,2,2,0.0,2,6,45.58955,-68.2881,"['Northeast', 'Northeast', 'Northeast', 'Northeast', 'Northeast', 'Northeast', 'Northeast', 'Northeast']","[[41.7966, -71.4782], [49.3825, -65.098], [41.7966, -71.4782], [49.3825, -65.098], [41.7966, -71.4782], [49.3825, -65.098], [41.7966, -71.4782], [49.3825, -65.098]]",Rhode Island,Northeast,6.8869490626925325,same
71,pan,Foraging,2016-06-08 16:49:41.910,0.7083333333333334,0.7692307692307693,0.909,0,3,2,2,0.327472625,2,6,44.569700000000005,-105.4048375,"['None', 'UpperMidwest', 'West', 'NorthernRockiesPlains', 'West', 'NorthernRockiesPlains', 'West', 'NorthernRockiesPlains']","[[30.5427, -116.467], [41.7484, -95.2126], [41.761, -116.496], [52.9945, -94.0237], [41.761, -116.496], [52.9945, -94.0237], [41.761, -116.496], [52.9945, -94.0237]]",Nevada,West,27.057419977514012,same
72,pan,Foraging,2016-06-08 16:49:43.723,0.72,0.7777777777777778,1.813,0,3,2,2,0.32354099999999997,2,6,45.18025,-123.341125,"['None', 'West', 'None', 'Other', 'None', 'Other', 'None', 'Other']","[[35.4656, -124.134], [41.6637, -116.597], [41.7792, -132.156], [52.9917, -116.51], [41.7792, -132.156], [52.9917, -116.51], [41.7792, -132.156], [52.9917, -116.51]]",None,None,34.27378839788513,same
73,pan,Foraging,2016-06-08 16:49:44.899,0.7307692307692307,0.7857142857142857,1.176,0,3,2,2,0.15802149999999998,2,6,18.6779625,-76.7084625,"['None', 'None', 'South', 'None', 'South', 'None', 'South']","[[19.3337, -107.299], [30.4742, -97.2569], [19.3337, -107.299], [30.4742, -97.2569], [19.3337, -107.299], [30.4742, -97.2569]]",None,None,31.88726879379313,same
74,pan,Foraging,2016-06-08 16:49:46.976,0.7407407407407407,0.7931034482758621,2.077,0,3,2,2,0.45529137499999994,2,6,44.5735,-87.99396250000001,"['South', 'Northeast', 'West', 'NorthernRockiesPlains', 'UpperMidwest', 'Northeast', 'UpperMidwest', 'Northeast']","[[30.5342, -90.8979], [41.7187, -71.5601], [41.761, -116.496], [52.9945, -94.0237], [41.7904, -93.9831], [52.9994, -71.5039], [41.7904, -93.9831], [52.9994, -71.5039]]",Iowa,Northeast,326.8373494564518,same
75,pan,Foraging,2016-06-08 16:49:48.258,0.75,0.8,1.282,0,3,2,2,0.0,2,6,47.3949,-82.7435,"['UpperMidwest', 'Northeast', 'UpperMidwest', 'Northeast', 'UpperMidwest', 'Northeast', 'UpperMidwest', 'Northeast']","[[41.7904, -93.9831], [52.9994, -71.5039], [41.7904, -93.9831], [52.9994, -71.5039], [41.7904, -93.9831], [52.9994, -71.5039], [41.7904, -93.9831], [52.9994, -71.5039]]",Iowa,UpperMidwest,351.79818137059164,same
76,zoom,Navigation,2016-06-08 16:49:57.105,0.30952380952380953,0.8181818181818182,8.847,0,3,2,3,0.6367393749999999,2,6,41.83425,-99.685,"['South', 'NorthernRockiesPlains', 'South', 'UpperMidwest', 'SouthWest', 'NorthernRockiesPlains', 'NorthernRockiesPlains', 'NorthernRockiesPlains']","[[35.0085, -111.96], [41.7484, -98.5357], [35.6837, -98.4657], [41.7401, -90.8979], [41.7504, -111.985], [48.49, -98.502], [41.7644, -98.4982], [48.4885, -88.6355]]",Nebraska,NorthernRockiesPlains,0.0,change
77,zoom,Navigation,2016-06-08 16:49:57.702,0.6976744186046512,0.8222222222222222,0.597,0,3,2,4,0.632255625,2,6,41.7476125,-105.22398749999999,"['SouthWest', 'NorthernRockiesPlains', 'SouthWest', 'NorthernRockiesPlains', 'SouthWest', 'NorthernRockiesPlains', 'NorthernRockiesPlains', 'NorthernRockiesPlains']","[[38.3778, -111.966], [41.744, -105.315], [38.3755, -105.001], [41.7499, -98.5189], [41.75, -111.985], [45.124, -105.26], [41.7504, -105.244], [45.1093, -98.502]]",Utah,NorthernRockiesPlains,0.0,same
78,pan,Navigation,2016-06-08 16:49:59.650,0.7045454545454546,0.15217391304347827,1.948,10,3,2,4,0.47253212499999997,2,6,45.95925,-96.8476625,"['NorthernRockiesPlains', 'UpperMidwest', 'NorthernRockiesPlains', 'NorthernRockiesPlains', 'NorthernRockiesPlains', 'NorthernRockiesPlains', 'NorthernRockiesPlains', 'NorthernRockiesPlains']","[[41.7565, -98.4982], [45.1237, -91.7562], [45.1276, -105.248], [48.4992, -98.8713], [45.1255, -98.4456], [48.458, -91.7582], [45.1255, -98.4456], [48.458, -91.7582]]",South Dakota,NorthernRockiesPlains,325.9207403486428,same
79,zoom,Navigation,2016-06-08 16:50:00.711,0.7111111111111111,0.8085106382978723,1.061,10,3,2,5,0.606931,2,6,43.5398375,-101.92505,"['NorthernRockiesPlains', 'NorthernRockiesPlains', 'NorthernRockiesPlains', 'NorthernRockiesPlains', 'NorthernRockiesPlains', 'NorthernRockiesPlains', 'NorthernRockiesPlains', 'NorthernRockiesPlains']","[[41.841, -104.835], [43.4649, -101.781], [41.8411, -101.771], [43.5311, -98.3933], [43.6998, -105.152], [45.2228, -103.442], [43.5325, -101.632], [45.1855, -98.3941]]",South Dakota,NorthernRockiesPlains,0.0,same
80,pan,Sensemaking,2016-06-08 16:50:06.185,0.5384615384615384,0.8,5.474,10,3,2,5,0.32069925,2,6,43.9537125,-96.7028,"['NorthernRockiesPlains', 'UpperMidwest', 'NorthernRockiesPlains', 'UpperMidwest', 'NorthernRockiesPlains', 'UpperMidwest', 'NorthernRockiesPlains', 'UpperMidwest']","[[41.8401, -98.3884], [43.5312, -95.0199], [43.5328, -98.3916], [45.22, -95.0131], [43.5328, -98.3916], [45.22, -95.0131], [43.5328, -98.3916], [45.22, -95.0131]]",Minnesota,NorthernRockiesPlains,343.9647336250044,change
