UserIndex,Action,State,TimeStamp,HighLevelStateActionProbab,StateActionProbab,IdleTime,Reward,Subtask_Screenshot_Time,Subtask_Idle_Time,ZoomLevel,NDSI,Subtask_Zoom,Subtask_ROI,Latitude,Longitude,All_address,All_raw_address,Most_frequent_state,Most_frequent_region,Angle,high-level-action
0,start,Foraging,2016-06-07 18:01:49.968,0.6666666666666666,0.4,0.0,0,1,1,0,2.706976,1,1,34.103049999999996,-98.6128,"['None', 'Other', 'None', 'Other', 'None', 'Other', 'None', 'Other']","[[15.2153, -132.053], [52.9908, -65.1726], [15.2153, -132.053], [52.9908, -65.1726], [15.2153, -132.053], [52.9908, -65.1726], [15.2153, -132.053], [52.9908, -65.1726]]",None,None,0.0,change
1,zoom,Foraging,2016-06-07 18:02:12.584,0.5,0.3333333333333333,22.616,0,1,1,1,2.5047135,1,1,32.654175,-94.1993125,"['None', 'South', 'Other', 'None', 'None', 'Other', 'South', 'Other']","[[18.1367, -107.299], [30.3858, -97.2569], [15.1746, -86.0958], [30.4655, -77.7951], [30.5427, -132.053], [52.9945, -94.0237], [30.5342, -93.9559], [52.9994, -65.1151]]",None,None,0.0,same
2,pan,Foraging,2016-06-07 18:02:14.759,0.6,0.2857142857142857,2.175,0,1,1,1,2.572936,1,1,41.7668,-79.5355,"['South', 'Other', 'South', 'Other', 'South', 'Other', 'South', 'Other']","[[30.5342, -93.9559], [52.9994, -65.1151], [30.5342, -93.9559], [52.9994, -65.1151], [30.5342, -93.9559], [52.9994, -65.1151], [30.5342, -93.9559], [52.9994, -65.1151]]",Texas,South,335.858576693525,same
3,pan,Foraging,2016-06-07 18:02:16.093,0.6666666666666666,0.375,1.334,0,1,1,1,2.572936,1,1,41.7668,-79.5355,"['South', 'Other', 'South', 'Other', 'South', 'Other', 'South', 'Other']","[[30.5342, -93.9559], [52.9994, -65.1151], [30.5342, -93.9559], [52.9994, -65.1151], [30.5342, -93.9559], [52.9994, -65.1151], [30.5342, -93.9559], [52.9994, -65.1151]]",Texas,South,10.342191095475295,same
4,pan,Foraging,2016-06-07 18:02:18.751,0.7142857142857143,0.4444444444444444,2.658,0,1,1,1,2.572936,1,1,41.7668,-79.5355,"['South', 'Other', 'South', 'Other', 'South', 'Other', 'South', 'Other']","[[30.5342, -93.9559], [52.9994, -65.1151], [30.5342, -93.9559], [52.9994, -65.1151], [30.5342, -93.9559], [52.9994, -65.1151], [30.5342, -93.9559], [52.9994, -65.1151]]",Texas,South,4.7202549406428815,same
5,pan,Foraging,2016-06-07 18:02:19.874,0.75,0.5,1.123,10,1,1,1,2.572936,1,1,41.7668,-79.5355,"['South', 'Other', 'South', 'Other', 'South', 'Other', 'South', 'Other']","[[30.5342, -93.9559], [52.9994, -65.1151], [30.5342, -93.9559], [52.9994, -65.1151], [30.5342, -93.9559], [52.9994, -65.1151], [30.5342, -93.9559], [52.9994, -65.1151]]",Texas,South,5.341611058538692,same
6,zoom,Navigation,2016-06-07 18:02:20.442,0.6666666666666666,0.4,0.568,10,1,1,2,2.6040545,1,1,42.36835000000001,-113.94953749999999,"['None', 'West', 'None', 'UpperMidwest', 'None', 'Other', 'West', 'Other']","[[35.4656, -124.134], [41.6637, -116.597], [30.5427, -116.467], [41.7484, -95.2126], [41.7792, -132.156], [52.9917, -116.51], [41.761, -116.496], [52.9945, -94.0237]]",None,None,0.0,change
7,pan,Navigation,2016-06-07 18:02:21.732,0.5,0.3333333333333333,1.29,10,1,1,2,2.631278,1,1,47.377750000000006,-105.25985,"['West', 'Other', 'West', 'Other', 'West', 'Other', 'West', 'Other']","[[41.761, -116.496], [52.9945, -94.0237], [41.761, -116.496], [52.9945, -94.0237], [41.761, -116.496], [52.9945, -94.0237], [41.761, -116.496], [52.9945, -94.0237]]",Nevada,West,342.2508393121089,same
8,zoom,Navigation,2016-06-07 18:02:22.473,0.6,0.42857142857142855,0.741,10,1,1,3,2.629052,1,1,47.9384,-111.895675,"['None', 'NorthernRockiesPlains', 'SouthWest', 'NorthernRockiesPlains', 'None', 'Other', 'NorthernRockiesPlains', 'Other']","[[41.7759, -124.65], [48.4972, -112.005], [41.7504, -111.985], [48.49, -98.502], [48.5013, -125.495], [52.9961, -112.008], [48.5, -111.989], [52.9963, -98.5314]]",None,NorthernRockiesPlains,0.0,same
9,pan,Navigation,2016-06-07 18:02:23.453,0.6666666666666666,0.375,0.98,10,1,1,3,1.716327,1,1,38.3121375,-96.623625,"['None', 'None', 'Other', 'None', 'Other', 'None', 'Other']","[[49.1719, -132.156], [52.9938, -125.507], [49.1719, -132.156], [52.9938, -125.507], [49.1719, -132.156], [52.9938, -125.507]]",None,None,353.93399430250025,same
10,zoom,Navigation,2016-06-07 18:02:24.169,0.7142857142857143,0.4444444444444444,0.716,10,1,1,4,2.5818445,1,1,48.5021875,-118.64875,"['None', 'NorthWest', 'NorthWest', 'NorthernRockiesPlains', 'None', 'Other', 'NorthWest', 'Other']","[[45.1393, -124.664], [48.4949, -118.763], [45.1357, -118.749], [48.4972, -112.017], [48.5002, -125.495], [51.8744, -118.758], [48.505, -118.734], [51.8708, -112.01]]",None,NorthWest,0.0,same
11,zoom,Navigation,2016-06-07 18:02:25.473,0.75,0.5,1.304,10,1,1,5,2.5696054999999998,1,1,48.6108125,-118.753,"['NorthWest', 'NorthWest', 'NorthWest', 'NorthernRockiesPlains', 'NorthWest', 'Other', 'NorthWest', 'Other']","[[46.9167, -122.076], [48.6073, -119.325], [46.9166, -118.648], [48.5908, -115.314], [48.6095, -121.938], [50.2982, -118.703], [48.6478, -118.693], [50.2996, -115.327]]",Washington,NorthWest,0.0,same
12,pan,Sensemaking,2016-06-07 18:02:26.916,0.6666666666666666,0.4,1.443,10,1,1,5,2.477398,1,1,49.473699999999994,-117.00999999999999,"['NorthWest', 'Other', 'NorthWest', 'Other', 'NorthWest', 'Other', 'NorthWest', 'Other']","[[48.6478, -118.693], [50.2996, -115.327], [48.6478, -118.693], [50.2996, -115.327], [48.6478, -118.693], [50.2996, -115.327], [48.6478, -118.693], [50.2996, -115.327]]",Washington,NorthWest,1.6921853583433295,change
13,pan,Sensemaking,2016-06-07 18:02:46.676,0.5,0.5,19.76,10,2,1,5,2.2205625,1,1,46.9108,-122.556,"['NorthWest', 'NorthWest', 'NorthWest', 'NorthWest', 'None', 'NorthWest', 'None', 'NorthWest']","[[45.225, -124.028], [46.873, -122.084], [45.2255, -122.077], [46.9143, -118.749], [46.9181, -124.675], [48.6062, -122.08], [46.9181, -124.675], [48.6062, -122.08]]",Washington,NorthWest,9.259371787361406,same
14,zoom,Navigation,2016-06-07 18:02:52.481,0.3333333333333333,0.5454545454545454,5.805,10,3,2,4,2.5818445,1,2,48.5021875,-118.64875,"['None', 'NorthWest', 'NorthWest', 'NorthernRockiesPlains', 'None', 'Other', 'NorthWest', 'Other']","[[45.1393, -124.664], [48.4949, -118.763], [45.1357, -118.749], [48.4972, -112.017], [48.5002, -125.495], [51.8744, -118.758], [48.505, -118.734], [51.8708, -112.01]]",None,NorthWest,0.0,change
15,zoom,Navigation,2016-06-07 18:02:53.185,0.7,0.5833333333333334,0.704,10,3,2,3,1.892573,1,2,36.742025,-91.477625,"['None', 'None', 'NorthernRockiesPlains', 'None', 'Other', 'None', 'Other']","[[41.7759, -124.65], [48.4972, -112.005], [49.1719, -132.156], [52.9938, -125.507], [48.5013, -125.495], [52.9961, -112.008]]",None,None,0.0,same
16,zoom,Navigation,2016-06-07 18:02:54.217,0.7272727272727273,0.6153846153846154,1.032,10,3,2,2,2.650141,1,2,47.379675000000006,-110.0281375,"['None', 'Other', 'West', 'Other', 'West', 'Other', 'West', 'Other']","[[41.7792, -132.156], [52.9917, -116.51], [41.761, -116.496], [52.9945, -94.0237], [41.761, -116.496], [52.9945, -94.0237], [41.761, -116.496], [52.9945, -94.0237]]",Nevada,Other,0.0,same
17,pan,Foraging,2016-06-07 18:02:55.351,0.3333333333333333,0.5454545454545454,1.134,10,3,2,2,2.5736945,1,2,36.750325000000004,-109.471225,"['None', 'West', 'None', 'UpperMidwest', 'None', 'UpperMidwest', 'None', 'UpperMidwest']","[[35.4656, -124.134], [41.6637, -116.597], [30.5427, -116.467], [41.7484, -95.2126], [30.5427, -116.467], [41.7484, -95.2126], [30.5427, -116.467], [41.7484, -95.2126]]",None,None,9.417011049300287,change
18,pan,Foraging,2016-06-07 18:02:59.009,0.7,0.5833333333333334,3.658,10,3,2,2,2.4314659999999995,1,2,44.5777875,-82.364875,"['South', 'Northeast', 'UpperMidwest', 'Other', 'UpperMidwest', 'Other', 'UpperMidwest', 'Other']","[[30.5342, -90.8979], [41.7187, -71.5601], [41.7904, -93.9831], [52.9994, -71.5039], [41.7904, -93.9831], [52.9994, -71.5039], [41.7904, -93.9831], [52.9994, -71.5039]]",Iowa,UpperMidwest,350.25990637150386,same
19,pan,Foraging,2016-06-07 18:03:02.644,0.7272727272727273,0.6153846153846154,3.635,0,3,2,2,2.53624,1,2,47.3949,-82.7435,"['UpperMidwest', 'Other', 'UpperMidwest', 'Other', 'UpperMidwest', 'Other', 'UpperMidwest', 'Other']","[[41.7904, -93.9831], [52.9994, -71.5039], [41.7904, -93.9831], [52.9994, -71.5039], [41.7904, -93.9831], [52.9994, -71.5039], [41.7904, -93.9831], [52.9994, -71.5039]]",Iowa,UpperMidwest,338.3458695810843,same
20,pan,Foraging,2016-06-07 18:03:04.317,0.75,0.6428571428571429,1.673,0,3,2,2,2.53624,1,2,47.3949,-82.7435,"['UpperMidwest', 'Other', 'UpperMidwest', 'Other', 'UpperMidwest', 'Other', 'UpperMidwest', 'Other']","[[41.7904, -93.9831], [52.9994, -71.5039], [41.7904, -93.9831], [52.9994, -71.5039], [41.7904, -93.9831], [52.9994, -71.5039], [41.7904, -93.9831], [52.9994, -71.5039]]",Iowa,UpperMidwest,338.2991658996454,same
21,zoom,Foraging,2016-06-07 18:03:05.201,0.7692307692307693,0.2,0.884,0,3,2,1,2.6063345,1,2,41.767250000000004,-87.9112125,"['None', 'Other', 'South', 'Other', 'South', 'Other', 'South', 'Other']","[[30.5427, -132.053], [52.9945, -94.0237], [30.5342, -93.9559], [52.9994, -65.1151], [30.5342, -93.9559], [52.9994, -65.1151], [30.5342, -93.9559], [52.9994, -65.1151]]",Texas,Other,0.0,same
22,pan,Foraging,2016-06-07 18:03:06.300,0.7857142857142857,0.625,1.099,0,3,2,1,2.290369,1,2,23.180349999999997,-87.02857499999999,"['None', 'South', 'Other', 'None', 'Other', 'None', 'Other', 'None']","[[18.1367, -107.299], [30.3858, -97.2569], [15.1746, -86.0958], [30.4655, -77.7951], [15.1746, -86.0958], [30.4655, -77.7951], [15.1746, -86.0958], [30.4655, -77.7951]]",None,None,14.062393063557481,same
23,pan,Foraging,2016-06-07 18:03:07.788,0.8,0.6470588235294118,1.488,0,3,2,1,2.2110440000000002,1,2,22.82005,-81.94545,"['Other', 'None', 'Other', 'None', 'Other', 'None', 'Other', 'None']","[[15.1746, -86.0958], [30.4655, -77.7951], [15.1746, -86.0958], [30.4655, -77.7951], [15.1746, -86.0958], [30.4655, -77.7951], [15.1746, -86.0958], [30.4655, -77.7951]]",Olancho,Other,334.31142015727556,same
24,pan,Foraging,2016-06-07 18:03:09.123,0.8125,0.6666666666666666,1.335,0,3,2,1,2.2110440000000002,1,2,22.82005,-81.94545,"['Other', 'None', 'Other', 'None', 'Other', 'None', 'Other', 'None']","[[15.1746, -86.0958], [30.4655, -77.7951], [15.1746, -86.0958], [30.4655, -77.7951], [15.1746, -86.0958], [30.4655, -77.7951], [15.1746, -86.0958], [30.4655, -77.7951]]",Olancho,Other,2.148144422420452,same
25,zoom,Navigation,2016-06-07 18:03:15.986,0.3333333333333333,0.6428571428571429,6.863,0,3,2,2,2.3148095,1,2,42.66595,-75.8294,"['South', 'Northeast', 'Northeast', 'Northeast', 'UpperMidwest', 'Other', 'Northeast', 'Other']","[[30.5342, -90.8979], [41.7187, -71.5601], [41.3786, -71.4974], [41.7272, -70.6166], [41.7904, -93.9831], [52.9994, -71.5039], [41.7966, -71.4782], [49.3825, -65.098]]",Rhode Island,Northeast,0.0,change
26,zoom,Navigation,2016-06-07 18:03:17.129,0.6923076923076923,0.6666666666666666,1.143,0,3,2,3,2.3815904999999997,1,2,42.4470375,-85.04905,"['South', 'UpperMidwest', 'Northeast', 'Northeast', 'NorthernRockiesPlains', 'Other', 'OhioValley', 'Other']","[[35.6837, -98.4657], [41.7401, -90.8979], [39.8733, -79.1574], [41.7464, -71.5269], [41.7644, -98.4982], [48.4885, -88.6355], [41.7811, -81.7069], [48.4988, -71.5039]]",Oklahoma,Northeast,0.0,same
27,pan,Navigation,2016-06-07 18:03:18.171,0.7142857142857143,0.25,1.042,0,3,2,3,2.4375115000000003,1,2,44.234825,-68.978175,"['Northeast', 'Northeast', 'Northeast', 'Other', 'Northeast', 'Other', 'Northeast', 'Other']","[[41.3794, -71.4764], [41.7438, -70.6204], [41.7638, -71.4782], [48.488, -65.098], [41.7638, -71.4782], [48.488, -65.098], [41.7638, -71.4782], [48.488, -65.098]]",Rhode Island,Northeast,341.78920015776,same
28,pan,Navigation,2016-06-07 18:03:19.788,0.7333333333333333,0.29411764705882354,1.617,0,3,2,3,2.572594,1,2,45.1259,-68.2881,"['Northeast', 'Other', 'Northeast', 'Other', 'Northeast', 'Other', 'Northeast', 'Other']","[[41.7638, -71.4782], [48.488, -65.098], [41.7638, -71.4782], [48.488, -65.098], [41.7638, -71.4782], [48.488, -65.098], [41.7638, -71.4782], [48.488, -65.098]]",Rhode Island,Northeast,344.2223084845467,same
29,zoom,Navigation,2016-06-07 18:03:20.841,0.75,0.6111111111111112,1.053,0,3,2,4,2.5374665,1,2,45.125262500000005,-72.1476,"['Northeast', 'Other', 'Northeast', 'Northeast', 'Other', 'Other', 'Other', 'Other']","[[41.7561, -78.2433], [45.1214, -71.5087], [41.7576, -71.4973], [45.1161, -69.791], [45.1283, -78.0397], [48.4988, -71.5039], [45.1268, -71.4989], [48.497, -65.098]]",Québec,Other,0.0,same
30,zoom,Navigation,2016-06-07 18:03:22.865,0.7647058823529411,0.631578947368421,2.024,0,3,2,5,2.5383105,1,2,45.3446375,-71.414025,"['Northeast', 'Northeast', 'Northeast', 'Northeast', 'Other', 'Other', 'Northeast', 'Northeast']","[[43.7759, -72.7948], [45.223, -71.3273], [44.4014, -71.316], [45.2237, -69.791], [45.2274, -74.7023], [46.9094, -71.3248], [45.2242, -71.3174], [46.7721, -68.7386]]",New Hampshire,Northeast,0.0,same
31,pan,Sensemaking,2016-06-07 18:03:31.581,0.6,0.5714285714285714,8.716,10,3,2,5,2.572594,1,2,45.99815,-70.028,"['Northeast', 'Northeast', 'Northeast', 'Northeast', 'Northeast', 'Northeast', 'Northeast', 'Northeast']","[[45.2242, -71.3174], [46.7721, -68.7386], [45.2242, -71.3174], [46.7721, -68.7386], [45.2242, -71.3174], [46.7721, -68.7386], [45.2242, -71.3174], [46.7721, -68.7386]]",New Hampshire,Northeast,18.34440273147084,change
32,zoom,Navigation,2016-06-07 18:03:33.672,0.2777777777777778,0.65,2.091,10,4,2,4,2.5374665,1,3,45.125262500000005,-72.1476,"['Northeast', 'Other', 'Northeast', 'Northeast', 'Other', 'Other', 'Other', 'Other']","[[41.7561, -78.2433], [45.1214, -71.5087], [41.7576, -71.4973], [45.1161, -69.791], [45.1283, -78.0397], [48.4988, -71.5039], [45.1268, -71.4989], [48.497, -65.098]]",Québec,Other,0.0,change
33,zoom,Navigation,2016-06-07 18:03:34.065,0.7368421052631579,0.6666666666666666,0.393,10,4,2,3,2.295737,1,3,43.159324999999995,-72.8210125,"['Northeast', 'Northeast', 'Northeast', 'Northeast', 'OhioValley', 'Other', 'Northeast', 'Other']","[[39.8733, -79.1574], [41.7464, -71.5269], [41.3794, -71.4764], [41.7438, -70.6204], [41.7811, -81.7069], [48.4988, -71.5039], [41.7638, -71.4782], [48.488, -65.098]]",Rhode Island,Northeast,0.0,same
34,zoom,Navigation,2016-06-07 18:03:34.521,0.75,0.6818181818181818,0.456,10,4,2,2,2.3148095,1,3,42.66595,-75.8294,"['South', 'Northeast', 'Northeast', 'Northeast', 'UpperMidwest', 'Other', 'Northeast', 'Other']","[[30.5342, -90.8979], [41.7187, -71.5601], [41.3786, -71.4974], [41.7272, -70.6166], [41.7904, -93.9831], [52.9994, -71.5039], [41.7966, -71.4782], [49.3825, -65.098]]",Rhode Island,Northeast,0.0,same
35,pan,Foraging,2016-06-07 18:03:35.360,0.23529411764705882,0.6842105263157895,0.839,10,4,2,2,2.572594,1,3,45.58955,-68.2881,"['Northeast', 'Other', 'Northeast', 'Other', 'Northeast', 'Other', 'Northeast', 'Other']","[[41.7966, -71.4782], [49.3825, -65.098], [41.7966, -71.4782], [49.3825, -65.098], [41.7966, -71.4782], [49.3825, -65.098], [41.7966, -71.4782], [49.3825, -65.098]]",Rhode Island,Northeast,28.504356271985102,change
36,pan,Foraging,2016-06-07 18:03:35.974,0.7777777777777778,0.7,0.614,10,4,2,2,2.6255295,1,3,44.569700000000005,-105.4048375,"['None', 'UpperMidwest', 'West', 'Other', 'West', 'Other', 'West', 'Other']","[[30.5427, -116.467], [41.7484, -95.2126], [41.761, -116.496], [52.9945, -94.0237], [41.761, -116.496], [52.9945, -94.0237], [41.761, -116.496], [52.9945, -94.0237]]",Nevada,West,17.732467522767934,same
37,pan,Foraging,2016-06-07 18:03:36.674,0.7894736842105263,0.7142857142857143,0.7,10,4,2,2,2.631278,1,3,47.377750000000006,-105.25985,"['West', 'Other', 'West', 'Other', 'West', 'Other', 'West', 'Other']","[[41.761, -116.496], [52.9945, -94.0237], [41.761, -116.496], [52.9945, -94.0237], [41.761, -116.496], [52.9945, -94.0237], [41.761, -116.496], [52.9945, -94.0237]]",Nevada,West,4.5027903896822705,same
38,pan,Foraging,2016-06-07 18:03:39.580,0.8,0.7272727272727273,2.906,10,4,2,2,2.631278,1,3,47.377750000000006,-105.25985,"['West', 'Other', 'West', 'Other', 'West', 'Other', 'West', 'Other']","[[41.761, -116.496], [52.9945, -94.0237], [41.761, -116.496], [52.9945, -94.0237], [41.761, -116.496], [52.9945, -94.0237], [41.761, -116.496], [52.9945, -94.0237]]",Nevada,West,20.347854433118076,same
39,pan,Foraging,2016-06-07 18:03:44.340,0.8095238095238095,0.7391304347826086,4.76,0,4,2,2,2.647529,1,3,45.18025,-123.341125,"['None', 'West', 'None', 'Other', 'None', 'Other', 'None', 'Other']","[[35.4656, -124.134], [41.6637, -116.597], [41.7792, -132.156], [52.9917, -116.51], [41.7792, -132.156], [52.9917, -116.51], [41.7792, -132.156], [52.9917, -116.51]]",None,None,2.236575559959349,same
40,pan,Foraging,2016-06-07 18:03:49.436,0.8181818181818182,0.75,5.096,0,4,2,2,2.70673,1,3,47.385450000000006,-124.333,"['None', 'Other', 'None', 'Other', 'None', 'Other', 'None', 'Other']","[[41.7792, -132.156], [52.9917, -116.51], [41.7792, -132.156], [52.9917, -116.51], [41.7792, -132.156], [52.9917, -116.51], [41.7792, -132.156], [52.9917, -116.51]]",None,None,1.2974763886364955,same
41,pan,Foraging,2016-06-07 18:03:52.171,0.8260869565217391,0.76,2.735,0,4,2,2,2.4314659999999995,1,3,44.5777875,-82.364875,"['South', 'Northeast', 'UpperMidwest', 'Other', 'UpperMidwest', 'Other', 'UpperMidwest', 'Other']","[[30.5342, -90.8979], [41.7187, -71.5601], [41.7904, -93.9831], [52.9994, -71.5039], [41.7904, -93.9831], [52.9994, -71.5039], [41.7904, -93.9831], [52.9994, -71.5039]]",Iowa,UpperMidwest,357.04813892695165,same
42,pan,Answering,2016-06-07 18:03:55.164,0.6666666666666666,0.4,2.993,10,4,2,2,2.53624,1,3,47.3949,-82.7435,"['UpperMidwest', 'Other', 'UpperMidwest', 'Other', 'UpperMidwest', 'Other', 'UpperMidwest', 'Other']","[[41.7904, -93.9831], [52.9994, -71.5039], [41.7904, -93.9831], [52.9994, -71.5039], [41.7904, -93.9831], [52.9994, -71.5039], [41.7904, -93.9831], [52.9994, -71.5039]]",Iowa,UpperMidwest,0.0,change
43,zoom,Foraging,2016-06-07 18:03:57.784,0.20833333333333334,0.15384615384615385,2.62,10,4,2,3,2.5469574999999995,1,3,41.83425,-99.685,"['South', 'NorthernRockiesPlains', 'South', 'UpperMidwest', 'SouthWest', 'NorthernRockiesPlains', 'NorthernRockiesPlains', 'Other']","[[35.0085, -111.96], [41.7484, -98.5357], [35.6837, -98.4657], [41.7401, -90.8979], [41.7504, -111.985], [48.49, -98.502], [41.7644, -98.4982], [48.4885, -88.6355]]",Nebraska,NorthernRockiesPlains,0.0,change
44,pan,Foraging,2016-06-07 18:04:02.364,0.8,0.7407407407407407,4.58,10,4,2,3,2.585546,1,3,45.126450000000006,-93.56684999999999,"['NorthernRockiesPlains', 'Other', 'NorthernRockiesPlains', 'Other', 'NorthernRockiesPlains', 'Other', 'NorthernRockiesPlains', 'Other']","[[41.7644, -98.4982], [48.4885, -88.6355], [41.7644, -98.4982], [48.4885, -88.6355], [41.7644, -98.4982], [48.4885, -88.6355], [41.7644, -98.4982], [48.4885, -88.6355]]",Nebraska,NorthernRockiesPlains,14.841382050163784,same
